City_ID,City,Lat,Lng,Max Temp,Humidity,Cloudiness,Wind Speed,Country,Date
0,bethel,41.3712,-73.414,6.05,61,100,3.09,US,1712373407
1,tarko-sale,64.9225,77.785,-15.26,79,100,7.02,RU,1712373407
2,kerikeri,-35.2268,173.9474,19.36,76,64,4.21,NZ,1712373407
3,kodiak,57.79,-152.4072,3.73,56,0,8.23,US,1712373408
4,tura,25.5198,90.2201,28.56,62,8,3.68,IN,1712373135
5,ushuaia,-54.8,-68.3,11.81,54,0,5.14,AR,1712373203
6,port-aux-francais,-49.35,70.2167,8.98,97,100,13.29,TF,1712373408
7,kraljevo,43.7258,20.6894,6.0,87,0,0.0,RS,1712373179
8,katsuura,35.1333,140.3,14.01,94,100,5.15,JP,1712373409
9,bilibino,68.0546,166.4372,-9.97,74,15,0.1,RU,1712373409
10,lompoc,34.6391,-120.4579,9.77,83,0,5.14,US,1712373409
11,onsong,42.9572,129.9933,19.91,24,2,0.79,KP,1712373409
12,edinburgh of the seven seas,-37.0676,-12.3116,18.82,93,87,11.38,SH,1712373409
13,adamstown,-25.066,-130.1015,22.13,66,73,2.62,PN,1712373410
14,bich'vinta,43.1592,40.3378,7.1,79,13,1.5,GE,1712373275
15,tiksi,71.6872,128.8694,-21.47,95,97,2.07,RU,1712373410
16,waitangi,-43.9535,-176.5597,12.68,81,95,4.47,NZ,1712373410
17,selfoss,63.9331,-20.9971,-4.42,51,0,5.47,IS,1712373411
18,port elizabeth,-33.918,25.5701,16.84,74,100,0.45,ZA,1712373411
19,papatowai,-46.5619,169.4708,13.84,69,83,4.02,NZ,1712373411
20,anadyr,64.75,177.4833,-16.72,85,0,4.0,RU,1712373411
21,novyy urgal,51.0736,132.5642,2.78,90,100,5.95,RU,1712373412
22,beloyarskiy,63.7119,66.6722,-14.44,85,25,1.79,RU,1712373412
23,tres arroyos,-38.3739,-60.2798,14.61,63,0,2.29,AR,1712373156
24,wewak,-3.5534,143.6268,29.26,78,100,1.62,PG,1712373412
25,iskateley,67.6803,53.1512,-13.32,92,34,4.92,RU,1712373413
26,albany,42.6001,-73.9662,3.84,80,98,3.58,US,1712373322
27,puerto natales,-51.7236,-72.4875,11.41,69,92,6.82,CL,1712373413
28,kavaratti,10.5669,72.642,29.01,69,100,3.94,IN,1712373413
29,jamestown,42.097,-79.2353,2.77,99,100,5.14,US,1712373162
30,grand falls-windsor,48.9332,-55.6649,-0.83,92,100,0.45,CA,1712373414
31,val-d'or,48.1002,-77.7828,0.46,92,97,4.27,CA,1712373414
32,codrington,-38.2667,141.9667,15.98,77,100,1.31,AU,1712373414
33,blackmans bay,-43.0167,147.3167,22.07,54,3,0.89,AU,1712373414
34,cururupu,-1.8283,-44.8683,23.76,100,83,0.34,BR,1712373415
35,kudahuvadhoo,2.6708,72.8944,28.99,74,76,1.95,MV,1712373415
36,caleta de carquin,-11.0925,-77.6267,22.25,86,99,3.82,PE,1712373415
37,iqaluit,63.7506,-68.5145,-8.15,86,100,2.06,CA,1712373415
38,bredy,52.4153,60.3411,6.49,82,100,0.61,RU,1712373415
39,east london,-33.0153,27.9116,17.18,78,100,2.57,ZA,1712373308
40,avarua,-21.2078,-159.775,26.03,89,100,5.14,CK,1712373416
41,touros,-5.1989,-35.4608,25.73,89,8,2.41,BR,1712373277
42,isiro,2.7739,27.616,20.35,100,100,0.64,CD,1712373416
43,salinopolis,-0.6136,-47.3561,26.88,85,63,5.37,BR,1712373353
44,college,64.8569,-147.8028,2.47,75,100,3.6,US,1712373233
45,pangody,65.85,74.4859,-17.28,88,9,7.34,RU,1712373417
46,saint-francois,46.4154,3.9054,15.69,39,0,4.63,FR,1712373417
47,khandyga,62.6667,135.6,-1.5,87,100,1.23,RU,1712373417
48,puerto deseado,-47.7503,-65.8938,13.75,49,81,7.91,AR,1712373417
49,djibouti,11.5,42.5,22.95,80,73,3.96,DJ,1712373345
50,invercargill,-46.4,168.35,13.34,82,79,3.13,NZ,1712373418
51,grytviken,-54.2811,-36.5092,1.93,80,76,0.99,GS,1712373418
52,brokopondo,4.75,-55.1667,26.11,77,81,4.8,SR,1712373418
53,badger,64.8,-147.5333,2.42,82,75,3.6,US,1712373418
54,isafjordur,66.0755,-23.124,-7.67,72,58,3.08,IS,1712373419
55,bamboo flat,11.7,92.7167,29.72,60,18,1.65,IN,1712373377
56,mirny,62.5353,113.9611,-16.94,80,100,3.17,RU,1712373419
57,port mathurin,-19.6833,63.4167,26.73,80,67,7.26,MU,1712373419
58,mili,6.0815,171.735,28.28,80,94,8.53,MH,1712373420
59,luganville,-15.5333,167.1667,27.74,85,100,5.08,VU,1712373420
60,kumagunnam,13.1551,10.6342,26.19,12,6,2.65,NG,1712373420
61,quellon,-43.1167,-73.6167,11.45,89,100,3.4,CL,1712373321
62,naze,28.3667,129.4833,21.29,85,99,1.13,JP,1712373420
63,okoneshnikovo,54.8377,75.0834,8.42,78,1,2.52,RU,1712373421
64,la passe,45.5549,-0.8967,16.13,73,71,12.32,FR,1712373421
65,mogocha,53.7333,119.7667,-4.74,41,49,6.97,RU,1712373421
66,uturoa,-16.7333,-151.4333,29.22,73,99,2.89,PF,1712373422
67,west island,-12.1568,96.8225,29.99,70,58,4.63,CC,1712373422
68,chonchi,-42.6128,-73.8092,11.73,93,67,1.15,CL,1712373422
69,praia da vitoria,38.7333,-27.0667,12.09,84,15,7.27,PT,1712373422
70,thompson,55.7435,-97.8558,1.28,95,99,4.07,CA,1712373422
71,whitby,54.4877,-0.615,12.4,89,100,1.79,GB,1712373423
72,tangalle,6.024,80.7911,27.96,79,52,2.26,LK,1712373423
73,manta,-0.95,-80.7333,26.88,74,75,3.58,EC,1712373423
74,atafu village,-8.5421,-172.5159,29.51,68,98,2.16,TK,1712373423
75,pangkalpinang,-2.1333,106.1333,28.66,79,99,1.5,ID,1712373423
76,maumere,-8.6199,122.2111,27.28,87,100,4.34,ID,1712373424
77,cromwell,41.5951,-72.6454,6.34,72,75,5.66,US,1712373386
78,pisco,-13.7,-76.2167,22.23,83,0,5.66,PE,1712373424
79,kingston,17.997,-76.7936,28.53,78,20,4.63,JM,1712373274
80,chilecito,-29.1619,-67.4974,19.62,65,15,2.27,AR,1712373134
81,petropavlovsk-kamchatsky,53.0452,158.6483,3.33,74,20,6.71,RU,1712373425
82,anahuac,27.2333,-100.15,23.83,53,99,12.0,MX,1712373425
83,guarapari,-20.6667,-40.4975,25.5,86,57,1.55,BR,1712373425
84,port lincoln,-34.7333,135.8667,17.86,65,8,4.46,AU,1712373426
85,san patricio,28.017,-97.5169,22.14,73,100,6.86,US,1712373309
86,hadibu,12.65,54.0333,26.27,70,6,2.55,YE,1712373426
87,carnarvon,-24.8667,113.6333,27.71,49,0,6.97,AU,1712373426
88,prince rupert,54.3161,-130.3201,4.49,90,100,2.14,CA,1712373310
89,el jadid,33.2549,-8.506,20.85,41,99,0.45,MA,1712373427
90,trapani,37.8333,12.6667,11.97,61,0,1.37,IT,1712373365
91,dauphin,51.1494,-100.0502,4.16,75,100,4.87,CA,1712373349
92,sinj,43.7036,16.6394,13.79,77,51,1.72,HR,1712373428
93,qaqortoq,60.7167,-46.0333,-7.43,70,1,3.62,GL,1712373428
94,barika,35.389,5.3658,17.8,30,4,1.19,DZ,1712373428
95,stanley,54.868,-1.6985,10.95,94,75,3.09,GB,1712373428
96,puerto ayora,-0.7393,-90.3518,25.31,95,88,2.24,EC,1712373429
97,sisimiut,66.9395,-53.6735,-6.75,67,100,5.68,GL,1712373242
98,vadso,70.0744,29.7487,-10.51,84,100,6.54,NO,1712373429
99,enewetak,11.3474,162.3373,27.33,77,90,9.3,MH,1712373429
100,zheleznodorozhnyy,55.7503,38.0042,1.34,40,100,2.68,RU,1712373430
101,catriel,-37.8791,-67.7956,20.52,34,1,3.93,AR,1712373430
102,puerto baquerizo moreno,-0.9,-89.6,23.98,88,96,4.05,EC,1712373430
103,dhidhdhoo,6.8833,73.1,29.23,72,80,3.33,MV,1712373430
104,kurchatov,51.6601,35.6521,-0.77,81,99,2.46,RU,1712373431
105,polyarnyy,69.1989,33.4478,-8.81,84,100,6.33,RU,1712373431
106,belaya kholunitsa,58.84,50.8528,-7.17,73,28,2.99,RU,1712373431
107,belle plaine,44.6227,-93.7686,9.45,68,43,4.74,US,1712373431
108,kruisfontein,-34.0033,24.7314,14.38,72,100,4.18,ZA,1712373431
109,ilulissat,69.2167,-51.1,-6.99,58,75,0.51,GL,1712373432
110,ta`u,-14.2336,-169.5144,28.75,76,100,2.5,AS,1712373432
111,zalari,53.5584,102.5065,3.82,97,100,2.19,RU,1712373433
112,hola,51.5377,23.1902,12.1,88,100,4.76,PL,1712373433
113,hithadhoo,-0.6,73.0833,27.85,79,93,4.35,MV,1712373433
114,cao bang,22.6667,106.25,21.94,93,100,1.5,VN,1712373433
115,arawa,-6.2132,155.5367,28.65,85,64,2.07,PG,1712373433
116,yanam,16.7333,82.2167,33.08,45,100,2.03,IN,1712373434
117,whitehorse,60.7161,-135.0538,1.72,86,100,4.63,CA,1712373379
118,kem',64.9555,34.5793,-6.24,95,100,5.45,RU,1712373428
119,buka,40.8108,69.1986,11.44,80,100,7.17,UZ,1712373434
120,georgetown,5.4112,100.3354,32.96,66,20,3.6,MY,1712373234
121,dadukou,26.5479,101.7054,26.05,30,6,0.68,CN,1712373435
122,barrancabermeja,7.0653,-73.8547,24.74,93,44,0.79,CO,1712373435
123,hawaiian paradise park,19.5933,-154.9731,20.73,93,100,4.12,US,1712373435
124,olonkinbyen,70.9221,-8.7187,-6.82,63,100,6.68,SJ,1712373436
125,mawu,29.5923,107.3139,15.52,74,91,1.33,CN,1712373436
126,keflavik,64.0049,-22.5624,-1.76,64,0,3.6,IS,1712373436
127,trairi,-3.2778,-39.2689,24.41,93,52,0.51,BR,1712373236
128,ivanteyevka,55.9711,37.9208,1.51,69,100,1.79,RU,1712373437
129,lorengau,-2.0226,147.2712,29.65,73,59,3.54,PG,1712373437
130,longyearbyen,78.2186,15.6401,-23.09,70,20,2.06,SJ,1712373358
131,lianjiang,21.6467,110.2817,29.24,59,45,7.77,CN,1712373438
132,tibati,6.4667,12.6333,20.67,87,100,1.26,CM,1712373209
133,birzebbuga,35.8258,14.5269,12.38,87,0,1.54,MT,1712373438
134,acajutla,13.5928,-89.8275,27.73,80,0,1.83,SV,1712373392
135,lebu,-37.6167,-73.65,11.53,94,5,3.54,CL,1712373438
136,hamilton,39.1834,-84.5333,5.57,82,0,2.68,US,1712373431
137,jardim,-21.4803,-56.1381,24.86,77,96,0.75,BR,1712373439
138,kysucke nove mesto,49.3,18.7833,12.72,91,0,1.03,SK,1712373439
139,newman,37.3138,-121.0208,9.03,84,13,2.24,US,1712373314
140,colonia,50.9333,6.95,15.41,82,0,3.09,DE,1712373228
141,iquique,-20.2208,-70.1431,19.93,83,95,0.35,CL,1712373140
142,ain sefra,32.75,-0.5833,14.97,41,6,2.06,DZ,1712373440
143,el calafate,-50.3408,-72.2768,9.26,76,12,1.75,AR,1712373440
144,guajara mirim,-10.7828,-65.3394,24.07,91,100,0.94,BR,1712373440
145,yellowknife,62.456,-114.3525,-4.77,95,10,3.37,CA,1712373441
146,ketchikan,55.3422,-131.6461,4.26,87,100,6.17,US,1712373441
147,buala,-8.145,159.5921,29.13,80,65,2.54,SB,1712373441
148,katabu,-4.9333,122.5167,30.23,75,54,1.23,ID,1712373441
149,anna regina,7.2644,-58.5077,26.48,82,61,4.26,GY,1712373442
150,tanda,26.55,82.65,33.32,9,92,4.19,IN,1712373442
151,margaret river,-33.95,115.0667,26.46,32,0,2.33,AU,1712373442
152,eket,4.6412,7.9209,26.25,81,100,1.56,NG,1712373442
153,olyokminsk,60.3736,120.4264,-15.44,61,100,4.64,RU,1712373442
154,fort bragg,35.139,-79.006,10.91,46,75,3.09,US,1712373443
155,ibadan,7.3878,3.8964,22.96,88,100,2.14,NG,1712373303
156,ribeira grande,38.5167,-28.7,12.65,77,8,4.92,PT,1712373443
157,lihue,21.9789,-159.3672,26.58,72,100,10.29,US,1712373443
158,hobyo,5.3505,48.5268,28.02,71,77,5.0,SO,1712373444
159,bredasdorp,-34.5322,20.0403,14.97,79,100,7.58,ZA,1712373314
160,taghazout,30.5426,-9.7112,24.43,19,89,9.33,MA,1712373444
161,tolanaro,-25.0319,46.9987,21.53,93,16,2.98,MG,1712373409
162,chibougamau,49.9168,-74.3659,-0.82,91,100,2.28,CA,1712373444
163,tazovsky,67.4667,78.7,-20.46,89,11,6.21,RU,1712373445
164,aasiaat,68.7098,-52.8699,-12.83,94,100,5.24,GL,1712373445
165,axim,4.8699,-2.2405,27.2,85,79,2.79,GH,1712373445
166,caburan,5.9181,125.6411,27.79,71,44,6.24,PH,1712373445
167,abu jibeha,11.4562,31.2285,28.21,19,66,2.49,SD,1712373446
168,rawson,-43.3002,-65.1023,19.55,29,0,9.41,AR,1712373446
169,hasaki,35.7333,140.8333,14.05,91,100,3.92,JP,1712373446
170,coquimbo,-29.9533,-71.3436,16.63,80,0,1.49,CL,1712373071
171,hammerfest,70.6634,23.6821,-9.75,79,94,0.0,NO,1712373447
172,luanda,-8.8368,13.2343,26.05,83,100,3.54,AO,1712373301
173,karratha,-20.7377,116.8463,33.0,18,84,7.42,AU,1712373447
174,mata-utu,-13.2816,-176.1745,29.05,73,100,2.1,WF,1712373447
175,kayangel,8.0823,134.7173,28.0,72,45,9.69,PW,1712373447
176,guerrero negro,27.9769,-114.0611,15.36,56,100,8.26,MX,1712373448
177,essaouira,31.5125,-9.77,19.41,69,99,5.5,MA,1712373448
178,nadi,-17.8,177.4167,31.0,62,20,5.66,FJ,1712373332
179,port blair,11.6667,92.75,29.84,63,20,1.7,IN,1712373448
180,vernon,50.2581,-119.2691,7.94,76,98,1.79,CA,1712373338
181,ola,59.5833,151.2833,-2.7,74,65,0.6,RU,1712373449
182,pursat,12.3333,103.6667,34.98,40,1,1.34,KH,1712373449
183,porthcawl,51.479,-3.7036,13.98,88,100,10.55,GB,1712373273
184,creel,27.75,-107.6333,4.96,40,3,6.02,MX,1712373449
185,khilok,51.3674,110.4676,0.63,81,100,7.02,RU,1712373449
186,blackwater,-23.5833,148.8833,27.32,65,100,4.26,AU,1712373450
187,alofi,-19.0595,-169.9187,28.94,74,40,4.63,NU,1712373450
188,birjand,32.8663,59.2211,13.26,24,0,4.12,IR,1712373450
189,slave lake,55.2834,-114.769,1.99,93,100,1.03,CA,1712373451
190,gubkinskiy,64.434,76.5026,-15.13,81,100,7.73,RU,1712373451
191,blagodatnoye,45.3997,42.5867,7.51,87,14,3.91,RU,1712373451
192,douz,33.4663,9.0203,16.24,50,0,4.86,TN,1712373451
193,kapuskasing,49.4169,-82.4331,-0.67,94,65,3.94,CA,1712373451
194,balabac,7.9868,117.0645,30.37,68,100,6.1,PH,1712373452
195,blackfoot,43.1905,-112.345,0.59,93,79,6.0,US,1712373452
196,baishishan,43.5833,127.5667,15.48,31,43,7.86,CN,1712373452
197,yemetsk,63.4721,41.7941,-8.85,84,100,3.84,RU,1712373452
198,haines city,28.1142,-81.6179,18.86,69,0,2.57,US,1712373452
199,smithers,54.7804,-127.1743,3.72,67,100,1.13,CA,1712373312
200,aykhal,66.0,111.5,-20.76,90,68,4.47,RU,1712373453
201,makaha,21.4694,-158.2175,24.95,83,100,3.6,US,1712373453
202,talnakh,69.4865,88.3972,-8.77,94,100,7.9,RU,1712373453
203,aswan,24.0934,32.907,23.93,17,0,5.85,EG,1712372892
204,sarioglan,39.0769,35.9667,6.02,73,2,1.86,TR,1712373454
205,kourou,5.1552,-52.6478,28.03,87,100,3.17,GF,1712373454
206,floro,61.5996,5.0328,1.04,69,20,2.06,NO,1712373454
207,constantia,44.1833,28.65,7.38,66,6,2.11,RO,1712373454
208,ibresi,55.2961,47.0394,-1.96,80,100,4.64,RU,1712373455
209,namdrik,5.5994,168.1028,26.89,85,99,8.46,MH,1712373455
210,oppdal,62.5943,9.6912,-9.77,88,38,2.54,NO,1712373455
211,portland,45.5234,-122.6762,8.97,85,75,4.47,US,1712372724
212,haiku-pauwela,20.9219,-156.3051,24.01,86,75,9.26,US,1712373456
213,abqaiq,25.9371,49.6776,23.63,26,0,2.1,SA,1712373456
214,rio tuba,8.5061,117.4317,30.5,66,80,5.34,PH,1712373456
215,vorgashor,67.5833,63.95,-14.62,91,100,8.72,RU,1712373456
216,broken hill,-31.95,141.4333,18.23,57,99,7.55,AU,1712373457
217,punta arenas,-53.15,-70.9167,11.06,71,40,8.75,CL,1712373248
218,carauari,-4.8828,-66.8958,24.11,97,100,0.8,BR,1712373457
219,makinsk,52.6292,70.4169,4.95,82,13,2.35,KZ,1712373255
220,puerto maldonado,-12.6,-69.1833,25.0,95,92,1.0,PE,1712373457
221,novopskov,49.5464,39.0899,3.0,80,0,1.39,UA,1712373457
222,uvira,-3.4067,29.1458,22.25,87,100,1.53,CD,1712373458
223,sambava,-14.2667,50.1667,24.79,89,58,3.82,MG,1712373458
224,abuja,9.0574,7.4898,24.94,75,100,1.53,NG,1712373458
225,hornsea,53.9104,-0.1681,13.15,94,100,3.09,GB,1712373458
226,kristiansund,63.1115,7.732,1.36,64,100,1.54,NO,1712373458
227,vilyuysk,63.7553,121.6247,-15.0,88,99,1.79,RU,1712373459
228,san antonio de pale,-1.4014,5.6325,28.32,76,100,2.74,GQ,1712373459
229,necochea,-38.5473,-58.7368,13.87,83,0,6.03,AR,1712373459
230,luderitz,-26.6481,15.1594,14.11,80,100,7.55,NA,1712373459
231,goure,13.9835,10.2704,25.74,12,37,3.1,NE,1712373459
232,gadzhiyevo,69.2551,33.3362,-9.16,86,100,6.01,RU,1712373245
233,chikwawa,-16.0335,34.8009,23.59,89,11,0.26,MW,1712373460
234,okhotsk,59.3833,143.3,-3.61,81,36,1.06,RU,1712373460
235,udachny,66.4167,112.4,-20.31,87,29,5.11,RU,1712373460
236,vila franca do campo,37.7167,-25.4333,13.23,75,13,5.18,PT,1712373460
237,rio grande,-32.035,-52.0986,13.86,68,0,3.27,BR,1712373026
238,swakopmund,-22.6833,14.5333,14.99,87,9,3.44,NA,1712373461
239,beyneu,45.3167,55.2,11.85,66,68,2.02,KZ,1712373461
240,mirnyy,62.5353,113.9611,-16.94,80,100,3.17,RU,1712373461
241,hotan,37.0997,79.9269,15.72,18,54,1.04,CN,1712373461
242,malango,-2.9627,119.9001,28.67,63,86,1.28,ID,1712373462
243,afaahiti,-17.75,-149.2833,28.93,82,39,3.2,PF,1712373462
244,saldanha,-33.0117,17.9442,14.1,82,9,6.83,ZA,1712373462
245,undurkhaan,47.3194,110.6556,9.08,41,100,6.62,MN,1712373462
246,dakhla,23.6848,-15.958,18.31,90,1,4.95,EH,1712373462
247,sault ste. marie,46.5168,-84.3333,2.31,80,0,3.6,CA,1712373291
248,narvik,68.4384,17.4272,-6.22,72,98,2.05,NO,1712373463
249,monrovia,6.3005,-10.7969,25.86,90,100,2.74,LR,1712373463
250,dunedin,-45.8742,170.5036,16.0,64,59,3.13,NZ,1712373236
251,javea,38.7833,0.1667,16.03,88,83,3.13,ES,1712373355
252,santa marta,11.2408,-74.199,29.38,76,100,8.05,CO,1712373414
253,ulsteinvik,62.3432,5.8487,3.2,69,76,1.34,NO,1712373464
254,ceeldheer,3.8488,47.1806,28.04,79,53,4.63,SO,1712373464
255,harnai,30.1005,67.9374,21.97,15,0,2.18,PK,1712373464
256,san julian,21.0167,-102.1667,18.97,24,100,4.95,MX,1712373465
257,churapcha,62.0025,132.4325,-8.94,88,100,4.55,RU,1712373465
258,howrah,22.5892,88.3103,31.0,84,0,0.0,IN,1712373465
259,palmerston north,-40.35,175.6167,19.86,54,1,0.89,NZ,1712373381
260,siwa oasis,29.2041,25.5195,16.19,59,0,2.26,EG,1712373376
261,ribas do rio pardo,-20.4431,-53.7592,24.98,59,41,1.25,BR,1712373242
262,klyuchi,52.2667,79.1667,11.46,58,59,3.05,RU,1712373466
263,yermentau,51.6214,73.1069,9.38,60,10,3.47,KZ,1712373466
264,oranjemund,-28.55,16.4333,13.83,93,38,4.39,NA,1712373466
265,mount gambier,-37.8333,140.7667,21.55,51,61,3.18,AU,1712373467
266,vilyuchinsk,52.9306,158.4028,4.15,69,28,4.41,RU,1712373467
267,saipan,15.1355,145.701,30.39,70,40,8.23,MP,1712373467
268,bandar,2.05,99.75,30.58,65,23,1.29,ID,1712373467
269,berdigestyakh,62.0989,126.6992,-15.12,80,100,3.46,RU,1712373467
270,khorramabad,33.4878,48.3558,6.79,76,0,1.03,IR,1712373468
271,fortuna,40.5982,-124.1573,9.81,81,40,0.0,US,1712373468
272,sanchor,24.7553,71.7722,26.81,37,40,5.12,IN,1712373468
273,doka,13.5167,35.7667,28.69,21,94,2.7,SD,1712373468
274,ust-tsilma,65.441,52.1498,-9.66,79,96,4.92,RU,1712373468
275,tofol,5.3248,163.0078,31.88,66,75,8.23,FM,1712373469
276,banda aceh,5.5577,95.3222,30.13,67,100,3.51,ID,1712373469
277,ciudad lazaro cardenas,17.9583,-102.2,22.62,69,5,1.44,MX,1712373407
278,aitape,-3.1374,142.3475,29.36,78,61,3.06,PG,1712373469
279,yengema,8.7167,-11.1667,21.81,98,100,0.9,SL,1712373470
280,tsiombe,-25.3,45.4833,21.88,80,17,2.16,MG,1712373470
281,kyzyl-mazhalyk,51.1333,90.6,4.95,74,30,1.34,RU,1712373470
282,kununurra,-15.7667,128.7333,30.99,42,97,4.63,AU,1712373208
283,lubuklinggau,-3.3,102.8667,23.6,97,100,1.02,ID,1712373471
284,greymouth,-42.4667,171.2,14.69,65,1,2.36,NZ,1712373471
285,jianshui,23.6363,102.8264,28.55,28,3,5.68,CN,1712373471
286,cartagena,10.3997,-75.5144,27.79,83,40,3.09,CO,1712373424
287,nuuk,64.1835,-51.7216,-2.66,54,67,0.51,GL,1712373472
288,susuman,62.7833,148.1667,-12.79,74,49,0.89,RU,1712373472
289,borogontsy,62.6683,131.1683,-9.78,79,100,3.95,RU,1712373472
290,kuqa,41.7278,82.9364,10.17,46,98,3.0,CN,1712373472
291,nguruka,-5.1092,31.0419,18.02,98,100,0.13,TZ,1712373473
292,kolwezi,-10.7148,25.4667,16.54,96,100,1.47,CD,1712373473
293,alice springs,-23.7,133.8833,24.56,24,0,5.66,AU,1712373473
294,tamanrasset,22.785,5.5228,21.95,10,0,5.14,DZ,1712373473
295,witbank,-25.8713,29.2332,13.5,88,89,3.48,ZA,1712373473
296,pollock pines,38.7613,-120.5866,0.27,95,0,2.57,US,1712373474
297,jwaneng,-24.6004,24.7303,17.79,84,43,3.36,BW,1712373474
298,belyye stolby,55.3314,37.854,0.58,74,0,4.0,RU,1712373474
299,kill devil hills,36.0307,-75.676,13.0,49,100,4.63,US,1712373470
300,el granada,37.5027,-122.4694,11.01,70,75,9.26,US,1712373474
301,aljezur,37.3191,-8.8033,15.4,91,100,1.87,PT,1712373446
302,bengkulu,-3.8004,102.2655,26.86,85,100,1.28,ID,1712373475
303,wenchang,30.904,118.4887,12.63,80,100,3.42,CN,1712373475
304,chabahar,25.2919,60.643,24.67,79,0,4.02,IR,1712373475
305,arraial do cabo,-22.9661,-42.0278,23.89,83,0,1.66,BR,1712373283
306,hermanus,-34.4187,19.2345,13.78,81,92,8.1,ZA,1712373476
307,constitucion,-35.3333,-72.4167,12.49,84,60,4.46,CL,1712373476
308,boende,-0.2167,20.8667,20.89,99,100,1.18,CD,1712373476
309,ghat,24.9647,10.1728,20.97,11,0,1.39,LY,1712373476
310,eufaula,31.8913,-85.1455,13.3,69,0,0.0,US,1712373307
311,mocimboa,-11.3167,40.35,24.99,92,94,2.7,MZ,1712373477
312,nemuro,43.3236,145.575,5.46,60,0,7.49,JP,1712373477
313,nizhnesortymskiy,62.4397,71.7603,-12.1,76,100,6.88,RU,1712373477
314,la sarre,48.8002,-79.1996,1.8,89,100,5.37,CA,1712373477
315,talara,-4.5772,-81.2719,22.09,81,100,4.64,PE,1712373477
316,kiruna,67.8557,20.2251,-11.49,85,100,2.57,SE,1712373478
317,minas de marcona,-15.2119,-75.1103,17.25,90,91,4.82,PE,1712373478
318,cabo san lucas,22.8909,-109.9124,23.67,64,0,7.2,MX,1712373286
319,clearwater,27.9659,-82.8001,21.96,74,0,6.26,US,1712373478
320,fort morgan,40.2503,-103.8,18.36,16,0,8.23,US,1712373388
321,richards bay,-28.783,32.0377,20.74,83,88,3.67,ZA,1712373479
322,ilheus,-14.7889,-39.0494,23.6,93,38,2.52,BR,1712373361
323,mildura,-34.2,142.15,16.71,92,100,5.73,AU,1712373479
324,happy valley-goose bay,53.3168,-60.3315,-1.46,82,100,3.24,CA,1712373309
325,rumonge,-3.9736,29.4386,21.61,87,100,1.53,BI,1712373480
326,namtsy,62.7161,129.6658,-9.99,75,89,4.61,RU,1712373480
327,nuku'alofa,-21.1333,-175.2,28.19,69,20,6.17,TO,1712373481
328,mason city,43.1536,-93.201,6.14,60,0,4.63,US,1712373481
329,taltal,-25.4,-70.4833,18.83,83,11,0.86,CL,1712373317
330,nueva gerona,21.8833,-82.8,24.03,66,0,5.7,CU,1712373481
331,fort-de-france,14.6089,-61.0733,26.97,83,20,3.6,MQ,1712373273
332,ulladulla,-35.35,150.4667,23.67,71,37,3.61,AU,1712373482
333,vila velha,-20.3297,-40.2925,26.97,93,75,3.09,BR,1712373308
334,kisanga,-7.4362,37.7034,23.53,96,100,1.14,TZ,1712373482
335,mossel bay,-34.1831,22.146,16.55,73,100,8.79,ZA,1712373482
336,gazojak,41.1875,61.4036,11.69,61,0,3.35,TM,1712373483
337,mejit,10.2753,170.8646,27.26,77,82,8.71,MH,1712373483
338,boyolangu,-8.1181,111.8935,30.23,64,55,3.04,ID,1712373483
339,urcos,-13.6861,-71.6228,11.94,92,100,2.15,PE,1712373483
340,palmer,42.1584,-72.3287,4.52,75,61,0.45,US,1712373355
341,nova sintra,14.8667,-24.7167,23.27,75,96,0.35,CV,1712373302
342,mount isa,-20.7333,139.5,27.87,39,12,5.14,AU,1712373484
343,progreso,21.2833,-89.6667,24.5,78,0,7.3,MX,1712373484
344,ivins,37.1686,-113.6794,8.97,31,100,3.58,US,1712373484
345,belmonte,-15.8631,-38.8828,25.08,85,4,2.74,BR,1712373485
346,gumdag,39.2061,54.5906,15.31,41,100,6.36,TM,1712373485
347,sitka,57.0531,-135.33,5.94,81,100,3.6,US,1712373485
348,brookings,44.3114,-96.7984,8.43,48,0,6.69,US,1712373121
349,mayisad,19.1667,-72.1333,27.13,56,100,1.47,HT,1712373485
350,priozersk,61.0393,30.1291,0.05,86,100,2.14,RU,1712373486
351,utrik,11.2278,169.8474,27.13,75,99,8.49,MH,1712373486
352,inarajan village,13.2736,144.7484,31.54,82,99,7.92,GU,1712373486
353,ulanhot,46.0833,122.0833,12.58,29,59,10.45,CN,1712373486
354,ballina,-28.8667,153.5667,28.77,81,99,1.54,AU,1712373487
355,bayanhongor,46.7167,100.1167,2.48,41,5,0.72,MN,1712373487
356,kenai,60.5544,-151.2583,3.05,76,100,4.12,US,1712373487
357,okha,53.5739,142.9478,4.03,79,13,3.58,RU,1712373487
358,laja,-37.2667,-72.7,10.64,80,0,0.36,CL,1712373487
359,mangrol,21.1167,70.1167,27.32,63,93,5.14,IN,1712373488
360,tamandare,-8.7597,-35.1047,26.51,83,33,2.52,BR,1712373488
361,gouyave,12.1646,-61.7296,27.43,83,20,5.66,GD,1712373208
362,waddan,29.1614,16.139,15.82,46,21,1.47,LY,1712373488
363,robore,-18.3333,-59.75,25.55,82,100,0.96,BO,1712373488
364,emerald,-23.5333,148.1667,23.52,85,100,4.21,AU,1712373475
365,guiuan,11.0333,125.7247,27.92,76,100,6.66,PH,1712373489
366,belyy yar,53.6039,91.3903,7.94,61,98,0.0,RU,1712373489
367,dzhalagash,45.0833,64.6667,14.69,51,32,3.86,KZ,1712373489
368,callao,-12.0667,-77.15,24.84,78,20,6.69,PE,1712373489
369,iwaki,37.05,140.8833,14.32,91,100,0.26,JP,1712373490
370,wailua homesteads,22.0669,-159.378,26.24,73,100,10.29,US,1712373490
371,san juan de miraflores,-12.1629,-76.9635,23.98,76,100,4.53,PE,1712373490
372,bikenibeu village,1.3673,173.1241,29.98,84,20,4.12,KI,1712373491
373,fale old settlement,-9.3852,-171.2468,29.69,70,80,2.61,TK,1712373491
374,mooloolaba,-26.6833,153.1167,28.36,89,100,1.34,AU,1712373491
375,nar'yan-mar,67.6713,53.087,-13.27,92,38,4.92,RU,1712373491
376,nantucket,41.2835,-70.0995,6.08,81,40,5.66,US,1712373209
377,paradip garh,20.3167,86.6167,32.72,54,3,1.63,IN,1712373492
378,marka,1.7159,44.7717,28.56,76,46,4.39,SO,1712373492
379,northam,51.0333,-4.2167,13.67,86,100,9.76,GB,1712373465
380,tres palos,18.1833,-101.6167,21.29,54,8,1.75,MX,1712373492
381,monte maiz,-33.2046,-62.6008,13.86,65,0,4.0,AR,1712373492
382,taroa,8.7058,171.2275,27.63,78,78,8.71,MH,1712373493
383,santiago de cao,-7.9589,-79.2392,21.07,88,75,4.12,PE,1712373493
384,palembang,-2.9167,104.7458,30.05,74,40,1.03,ID,1712373493
385,manali,13.1667,80.2667,30.05,82,4,4.8,IN,1712373493
386,nizhneudinsk,54.9076,99.0276,7.26,88,98,1.69,RU,1712373493
387,zyryanovsk,49.7386,84.2719,2.99,84,56,0.64,KZ,1712373494
388,paradise point,-27.8863,153.3957,29.61,74,37,2.24,AU,1712373494
389,cordoba,-31.4135,-64.1811,21.81,89,40,2.57,AR,1712373334
390,kapa'a,22.0752,-159.319,26.99,72,100,10.29,US,1712373494
391,perelyub,51.8667,50.3667,9.96,87,100,3.58,RU,1712373495
392,anastacio,-20.4836,-55.8069,25.3,79,85,1.41,BR,1712373495
393,minggang,32.4586,114.0486,12.57,84,100,2.31,CN,1712373495
394,phalodi,27.1333,72.3667,29.29,23,3,3.24,IN,1712373495
395,rikaze,29.25,88.8833,7.76,27,100,1.24,CN,1712373495
396,camarinas,43.1311,-9.1817,12.74,91,100,12.91,ES,1712373496
397,trakai,54.6333,24.9333,8.42,89,100,4.47,LT,1712373496
398,galveston,29.3669,-94.9669,21.67,87,0,4.63,US,1712373343
399,kargopol',61.5071,38.9456,-4.72,80,100,4.9,RU,1712373496
400,puerto carreno,6.189,-67.4859,28.84,67,93,2.85,CO,1712373496
401,suzun,53.7841,82.3116,9.67,73,53,1.52,RU,1712373497
402,egilsstadir,65.2653,-14.3948,-5.05,86,100,3.6,IS,1712373497
403,milford haven,51.7128,-5.0341,13.95,84,100,11.2,GB,1712373497
404,port alfred,-33.5906,26.891,15.1,93,100,5.41,ZA,1712373228
405,nkove,-7.95,30.85,22.4,84,100,0.89,TZ,1712373498
406,prainha,-1.8,-53.48,24.29,95,100,1.7,BR,1712373498
407,el rama,12.1596,-84.2195,24.27,89,6,1.66,NI,1712373498
408,kamwenge,0.1866,30.4539,17.06,97,100,0.33,UG,1712373498
409,pala,9.3642,14.9046,28.05,35,99,1.81,TD,1712373308
410,reedsburg,43.5325,-90.0026,3.15,72,0,0.0,US,1712373499
411,ust-nera,64.5667,143.2,-8.25,81,88,1.35,RU,1712373499
412,devrekani,41.603,33.8392,2.85,46,0,0.67,TR,1712373499
413,urangan,-25.3,152.9,26.78,87,100,1.79,AU,1712373499
414,port augusta,-32.5,137.7667,23.4,37,0,4.76,AU,1712373500
415,bandarbeyla,9.4942,50.8122,26.56,73,20,2.91,SO,1712373500
416,nelson,-41.2833,173.2833,19.05,68,26,2.62,NZ,1712373500
417,el porvenir,13.7617,-87.3458,26.63,56,37,2.56,HN,1712373500
418,bodo,67.28,14.405,-3.98,64,40,4.63,NO,1712373501
419,wladyslawowo,54.7909,18.4009,11.75,85,41,10.1,PL,1712373501
420,chernyshevskiy,63.0128,112.4714,-16.93,79,99,3.74,RU,1712373501
421,la gi,10.6667,107.7833,30.92,54,6,6.45,VN,1712373501
422,champoton,19.35,-90.7167,25.06,73,6,4.83,MX,1712373501
423,bay roberts,47.5999,-53.2648,-0.48,92,88,5.36,CA,1712373502
424,kermit,31.8576,-103.0927,24.37,20,0,11.83,US,1712373235
425,labrador city,52.9463,-66.9114,-4.9,80,75,2.57,CA,1712373502
426,jiwani,25.05,61.7417,24.92,74,0,4.82,PK,1712373502
427,la'ie,21.6477,-157.9253,24.98,80,42,4.47,US,1712373502
428,san jose de jachal,-30.2406,-68.7469,21.08,52,8,0.49,AR,1712373503
429,as sulayyil,20.4607,45.5779,25.05,33,65,5.0,SA,1712373503
430,k'olito,7.3167,38.0833,16.33,92,64,1.52,ET,1712373503
431,cannonvale,-20.2833,148.7,27.66,83,93,4.59,AU,1712373255
432,parkano,62.0167,23.0167,-4.3,98,100,0.7,FI,1712373503
433,strezhevoy,60.7333,77.5889,1.65,97,59,2.68,RU,1712373504
434,bajil,15.0584,43.2851,27.29,73,78,2.21,YE,1712373504
435,zaragoza,41.6561,-0.8773,14.25,52,0,5.14,ES,1712373250
436,adrar,20.5022,-10.0711,26.54,13,3,3.4,MR,1712373504
437,luau,-10.7073,22.2247,18.53,97,100,1.4,AO,1712373504
438,jeremoabo,-10.075,-38.4808,22.71,96,5,1.23,BR,1712373505
439,agua dulce,18.1333,-94.1333,23.17,80,0,3.74,MX,1712373505
440,'ain benian,36.8028,2.9219,23.03,45,40,2.07,DZ,1712373505
441,xichang,27.8964,102.2634,20.32,55,66,2.04,CN,1712373505
442,ascension,30.2169,-90.9001,20.0,73,0,1.54,US,1712373506
443,sadri,25.1833,73.4333,27.48,30,90,4.41,IN,1712373506
444,lakshmipur,22.95,90.8333,30.2,69,40,4.36,BD,1712373506
445,griffith,41.5284,-87.4237,4.94,74,0,0.0,US,1712373506
446,serenje,-13.2325,30.2352,16.82,95,69,1.64,ZM,1712373506
447,bayramaly,37.6185,62.1671,15.86,35,50,2.26,TM,1712373507
448,crane,31.3974,-102.3501,22.82,33,41,13.97,US,1712373507
449,hluti,-27.2167,31.6167,18.28,86,100,2.39,SZ,1712373507
450,usogorsk,63.4106,48.6872,-16.85,99,73,1.41,RU,1712373507
451,rabigh,22.7986,39.0349,27.66,56,98,0.67,SA,1712373507
452,kalaleh,37.3807,55.4916,11.78,76,0,0.0,IR,1712373507
453,awjilah,29.1081,21.2869,17.16,42,7,4.16,LY,1712373508
454,snowflake,34.5134,-110.0785,5.62,72,100,7.43,US,1712373508
455,mora,11.0461,14.1401,26.56,13,80,0.88,CM,1712373508
456,graaff-reinet,-32.2522,24.5308,10.51,95,100,3.49,ZA,1712373508
457,aioun,16.6614,-9.6149,31.05,16,2,2.7,MR,1712373508
458,wetaskiwin,52.9668,-113.3687,0.67,91,100,2.21,CA,1712373509
459,andrelandia,-21.7397,-44.3092,16.02,88,4,1.46,BR,1712373509
460,sinan,34.8262,126.1086,9.56,65,100,3.91,KR,1712373509
461,ghadamis,30.1337,9.5007,20.45,24,0,6.13,LY,1712373509
462,san pedro pochutla,15.7333,-96.4667,25.84,75,2,1.38,MX,1712373509
463,den burg,53.0542,4.7972,12.2,88,100,2.57,NL,1712373510
464,san carlos,9.6612,-68.5827,29.72,58,94,1.54,VE,1712373510
465,urumqi,43.801,87.6005,10.53,37,0,1.0,CN,1712373510
466,margate,51.3813,1.3862,13.72,76,100,3.13,GB,1712373510
467,chul'man,56.8479,124.9104,-12.62,92,100,4.47,RU,1712373511
468,east ballina,-28.8667,153.5833,28.78,81,99,1.54,AU,1712373511
469,zabaykal'sk,49.6333,117.3167,2.6,33,11,8.99,RU,1712373511
470,waiuku,-37.25,174.75,19.83,75,98,2.01,NZ,1712373511
471,the bottom,17.6259,-63.2492,25.31,81,1,5.97,BQ,1712373511
472,boa vista,2.8197,-60.6733,24.99,88,40,1.03,BR,1712373512
473,barra do bugres,-15.0725,-57.1811,24.81,88,25,1.36,BR,1712373366
474,cockburn town,21.4612,-71.1419,25.89,78,1,2.71,TC,1712373225
475,lerwick,60.1545,-1.1494,5.0,72,100,10.13,GB,1712373512
476,el matama,16.7095,33.3565,27.29,19,9,4.49,SD,1712373512
477,williamsburg,37.2707,-76.7075,9.3,52,90,2.24,US,1712373368
478,dudinka,69.4058,86.1778,-8.51,93,100,12.52,RU,1712373513
479,vanimo,-2.6741,141.3028,28.65,84,97,1.83,PG,1712373513
480,tchintabaraden,15.8969,5.7985,28.15,10,14,3.14,NE,1712373513
481,laojunmiao,39.8333,97.7333,7.67,51,100,2.07,CN,1712373513
482,bath,51.3779,-2.3591,16.03,78,100,6.52,GB,1712373413
483,samana,19.2056,-69.3369,23.08,91,40,1.55,DO,1712373514
484,kayenta,36.7278,-110.2546,4.65,41,64,10.05,US,1712373514
485,la leonesa,-27.0379,-58.7035,23.31,88,0,3.2,AR,1712373514
486,weno,7.4515,151.8468,30.97,70,75,5.14,FM,1712373514
487,mersa matruh,31.3525,27.2453,16.83,74,0,5.12,EG,1712373515
488,santa elena de uairen,4.6167,-61.1333,20.6,73,4,2.37,VE,1712373515
489,harstad,68.799,16.5293,-4.91,68,98,4.47,NO,1712373515
490,dzhangala,49.2167,50.3333,12.56,75,100,1.23,KZ,1712373515
491,sirjan,29.452,55.6814,15.1,35,0,2.91,IR,1712373515
492,akureyri,65.6835,-18.0878,-4.04,74,100,5.14,IS,1712373516
493,santa ana,33.7456,-117.8678,12.36,61,40,9.26,US,1712373291
494,laguna,38.421,-121.4238,9.39,74,75,2.06,US,1712373516
495,mormugao,15.4,73.8,27.59,78,94,2.57,IN,1712373516
496,madimba,-10.4,40.3333,25.03,93,95,3.46,TZ,1712373516
497,remire-montjoly,4.9167,-52.2667,28.02,78,40,2.57,GF,1712373517
498,pariaman,-0.619,100.12,32.03,72,28,1.65,ID,1712373517
499,pazin,45.2403,13.9367,11.4,88,100,0.79,HR,1712373517
500,smiths station,32.5401,-85.0985,11.73,67,1,3.54,US,1712373517
501,nakasongola,1.3089,32.4564,18.67,94,70,1.43,UG,1712373518
502,quelimane,-17.8786,36.8883,25.97,94,40,0.77,MZ,1712373518
503,toliara,-23.35,43.6667,23.11,86,3,1.9,MG,1712373518
504,koungou,-12.7336,45.2042,28.84,84,20,5.14,YT,1712373518
505,bonthe,7.5264,-12.505,25.82,88,100,1.25,SL,1712373519
506,nur-sultan,51.1801,71.446,4.97,87,0,2.0,KZ,1712373317
507,bakchar,57.0186,82.0711,6.77,77,3,2.17,RU,1712373519
508,angaur state,6.906,134.13,28.15,76,18,9.23,PW,1712373519
509,sinabang,2.4803,96.3801,29.53,71,91,0.85,ID,1712373498
510,berlin,52.5244,13.4105,13.98,91,0,2.57,DE,1712373001
511,yelovo,57.0538,54.9207,-5.87,69,9,6.97,RU,1712373520
512,aldinga beach,-35.2793,138.4604,25.7,55,3,4.23,AU,1712373520
513,barah,13.7,30.3667,25.8,17,93,4.12,SD,1712373520
514,allahganj,27.55,79.6833,31.26,9,100,2.88,IN,1712373520
515,perryton,36.4,-100.8027,20.11,24,49,12.24,US,1712373284
516,san bernardo del viento,9.3533,-75.9524,28.21,83,23,3.61,CO,1712373521
517,mingora,34.7758,72.3625,17.67,42,5,2.53,PK,1712373521
518,howard springs,-12.497,131.047,32.21,68,100,3.48,AU,1712373522
519,miches,18.9836,-69.0476,24.66,84,8,1.84,DO,1712373376
520,praia,14.9215,-23.5087,21.3,83,20,5.14,CV,1712373522
521,husainabad,24.5333,84.0167,33.5,21,100,2.37,IN,1712373522
522,fortaleza,-3.7227,-38.5247,28.07,89,0,2.06,BR,1712373522
523,bijie,27.3125,105.2942,11.86,90,100,2.27,CN,1712373523
524,gotsucho,35.0,132.2167,16.55,58,100,2.17,JP,1712373523
525,urucara,-2.5364,-57.76,22.56,99,100,1.29,BR,1712373523
526,okola,4.0167,11.3833,22.25,99,100,0.41,CM,1712373523
527,arno,60.1167,18.6333,-0.68,100,100,2.17,SE,1712373524
528,norton,-17.8833,30.7,19.04,77,71,2.45,ZW,1712373524
529,yaren,-0.5472,166.916,28.58,77,92,6.01,NR,1712373524
530,talakan,50.3167,130.3667,2.8,55,100,4.77,RU,1712373524
531,prince george,53.9166,-122.753,4.05,48,0,0.0,CA,1712373278
532,annaba,36.9,7.7667,10.98,93,0,2.57,DZ,1712373525
533,kolonia town,6.964,158.206,32.06,70,75,5.14,FM,1712373525
534,korla,41.7597,86.1469,11.75,43,100,2.56,CN,1712373525
535,kalianget,-7.05,113.9333,29.77,74,98,1.1,ID,1712373525
536,ceerigaabo,10.6162,47.368,17.88,68,11,0.69,SO,1712373526
537,kapiri mposhi,-13.9652,28.6809,17.53,96,98,1.95,ZM,1712373526
538,upington,-28.4478,21.2561,20.07,32,17,1.44,ZA,1712373449
539,orita eruwa,7.55,3.4333,24.37,79,100,3.87,NG,1712373527
540,vorkuta,67.5,64.0,-14.42,91,100,8.48,RU,1712373527
541,al jawf,29.5,38.75,19.24,26,5,3.71,SA,1712373527
542,tamarin,-20.3256,57.3706,25.29,95,19,2.77,MU,1712373527
543,yuzhno-kurilsk,44.0306,145.8556,5.76,62,0,4.44,RU,1712373527
544,yulinshi,38.2906,109.7494,15.65,23,73,2.74,CN,1712373528
545,namibe,-15.1961,12.1522,23.59,71,100,1.65,AO,1712373528
546,safi,32.1667,-8.8333,23.22,22,67,1.37,MA,1712373528
547,ceelbuur,4.685,46.6176,26.26,82,87,3.68,SO,1712373528
548,geraldton,-28.7667,114.6,25.23,65,100,4.12,AU,1712373528
549,marsh harbour,26.5412,-77.0636,21.74,48,0,2.7,BS,1712373529
550,danilovka,50.3557,44.1168,3.62,94,100,5.37,RU,1712373529
551,warren,39.4334,-84.1666,4.47,85,0,1.54,US,1712373048
552,ust'-ilimsk,58.0006,102.6619,-8.09,90,100,1.75,RU,1712373529
553,toamasina,-18.1667,49.3833,23.59,91,17,2.89,MG,1712373362
554,tottori,35.5,134.2333,15.04,72,0,4.63,JP,1712373530
555,viqueque,-8.8673,126.3658,30.27,74,90,2.36,TL,1712373530
556,barra,-11.0894,-43.1417,24.97,84,83,0.55,BR,1712373530
557,walvis bay,-22.9575,14.5053,15.05,81,7,6.19,NA,1712373530
558,gering,41.8258,-103.6605,15.56,40,0,11.32,US,1712373531
559,konstantinovsk,47.5828,41.0922,5.88,87,1,1.67,RU,1712373531
560,itoman,26.1247,127.6694,23.21,94,75,2.06,JP,1712373531
561,poretskoye,55.1974,46.3291,-0.81,74,100,4.97,RU,1712373531
562,aripuana,-9.1667,-60.6333,22.52,99,85,1.17,BR,1712373415
563,sabang,5.8933,95.3214,28.95,73,76,4.7,ID,1712373532
564,song cau,13.45,109.2167,27.99,60,9,2.69,VN,1712373487
565,erenhot,43.6475,111.9767,11.28,33,4,6.1,CN,1712373532
566,saint-philippe,-21.3585,55.7679,24.77,85,6,1.25,RE,1712373532
567,al abyar,32.19,20.5965,11.78,86,1,6.41,LY,1712373533
568,permatang kuching,5.4634,100.3814,32.97,62,20,1.03,MY,1712373533
569,abadiania,-16.2042,-48.7069,18.19,97,19,0.05,BR,1712373323
570,severo-yeniseyskiy,60.3725,93.0408,-1.9,99,100,0.89,RU,1712373533
571,fort mcmurray,56.7268,-111.381,0.77,100,100,2.06,CA,1712373534
572,kirensk,57.7853,108.1119,-11.13,77,51,1.79,RU,1712373534
573,sinop,41.7711,34.8709,6.4,46,0,1.51,TR,1712373534
574,taboshar,40.5686,69.6413,8.18,74,100,2.59,TJ,1712373534
575,acapulco de juarez,16.8634,-99.8901,24.9,78,0,3.6,MX,1712373385
576,inhambane,-23.865,35.3833,24.75,83,100,0.92,MZ,1712373535
577,broome,42.2506,-75.833,2.96,92,100,3.09,US,1712373535
578,daru,-9.0763,143.2092,29.53,72,100,3.55,PG,1712373535
579,agaie,9.0167,6.3167,26.57,73,100,1.68,NG,1712373535
580,zaghouan,36.4029,10.1429,7.92,51,93,2.43,TN,1712373535
581,torghay,49.6339,63.4981,11.68,53,87,0.96,KZ,1712373536
582,tazacorte,28.629,-17.9293,20.54,90,0,3.09,ES,1712373536
583,urengoy,65.9667,78.3667,-17.82,83,75,5.68,RU,1712373536
584,birao,10.2849,22.7882,28.64,51,100,3.12,CF,1712373536
585,cam ranh,11.9214,109.1591,31.98,51,0,3.09,VN,1712373536
586,flying fish cove,-10.4217,105.6791,29.82,79,40,3.09,CX,1712373537
587,murray bridge,-35.1167,139.2667,23.52,46,19,5.32,AU,1712373537
588,acarau,-2.8856,-40.12,25.78,87,98,2.3,BR,1712373404
589,sulecin,52.4443,15.1168,10.94,90,100,4.16,PL,1712373331
590,dem'yanovo,60.3511,47.0842,-7.31,69,73,2.97,RU,1712373537
591,mizan teferi,6.9833,35.5833,17.88,94,100,1.29,ET,1712373538
592,san agustin,20.5333,-103.4667,23.62,22,40,1.54,MX,1712373538
